b'$GNRMC,090655.000,A,3535.7459,N,11141.6683,E,0.00,218.76,310522,,,A*72
UTC_time:2022-05-31 09:06:55
BJ_time:2022-05-31 17:06:55
{'纬度': [35.595765, 'N'], '经度': [111.69447166666667, 'E']}
b'$GNRMC,090656.000,A,3535.7459,N,11141.6683,E,0.00,218.76,310522,,,A*71
UTC_time:2022-05-31 09:06:56
BJ_time:2022-05-31 17:06:56
{'纬度': [35.595765, 'N'], '经度': [111.69447166666667, 'E']}
b'$GNRMC,090657.000,A,3535.7459,N,11141.6683,E,0.00,218.76,310522,,,A*70
UTC_time:2022-05-31 09:06:57
BJ_time:2022-05-31 17:06:57
{'纬度': [35.595765, 'N'], '经度': [111.69447166666667, 'E']}
b'$GNRMC,090658.000,A,3535.7459,N,11141.6683,E,0.00,218.76,310522,,,A*7F
UTC_time:2022-05-31 09:06:58
BJ_time:2022-05-31 17:06:58
{'纬度': [35.595765, 'N'], '经度': [111.69447166666667, 'E']}
b'$GNRMC,090659.000,A,3535.7459,N,11141.6683,E,0.00,218.76,310522,,,A*7E
UTC_time:2022-05-31 09:06:59
BJ_time:2022-05-31 17:06:59
{'纬度': [35.595765, 'N'], '经度': [111.69447166666667, 'E']}
b'$GNRMC,090902.000,A,3535.7459,N,11141.6683,E,0.00,218.76,310522,,,A*7F
UTC_time:2022-05-31 09:09:02
BJ_time:2022-05-31 17:09:02
{'纬度': [35.595765, 'N'], '经度': [111.69447166666667, 'E']}
b'$GNRMC,090903.000,A,3535.7459,N,11141.6683,E,0.00,218.76,310522,,,A*7E
UTC_time:2022-05-31 09:09:03
BJ_time:2022-05-31 17:09:03
{'纬度': [35.595765, 'N'], '经度': [111.69447166666667, 'E']}
b'$GNRMC,090904.000,A,3535.7459,N,11141.6683,E,0.00,218.76,310522,,,A*79
UTC_time:2022-05-31 09:09:04
BJ_time:2022-05-31 17:09:04
{'纬度': [35.595765, 'N'], '经度': [111.69447166666667, 'E']}
b'$GNRMC,090905.000,A,3535.7459,N,11141.6683,E,0.00,218.76,310522,,,A*78
UTC_time:2022-05-31 09:09:05
BJ_time:2022-05-31 17:09:05
{'纬度': [35.595765, 'N'], '经度': [111.69447166666667, 'E']}
b'$GNRMC,091008.000,A,3535.7459,N,11141.6683,E,0.00,218.76,310522,,,A*7D
UTC_time:2022-05-31 09:10:08
BJ_time:2022-05-31 17:10:08
{'纬度': [35.595765, 'N'], '经度': [111.69447166666667, 'E']}
b'$GNRMC,091009.000,A,3535.7459,N,11141.6683,E,0.00,218.76,310522,,,A*7C
UTC_time:2022-05-31 09:10:09
BJ_time:2022-05-31 17:10:09
{'纬度': [35.595765, 'N'], '经度': [111.69447166666667, 'E']}
b'$GNRMC,091010.000,A,3535.7459,N,11141.6683,E,0.00,218.76,310522,,,A*74
UTC_time:2022-05-31 09:10:10
BJ_time:2022-05-31 17:10:10
{'纬度': [35.595765, 'N'], '经度': [111.69447166666667, 'E']}
b'$GNRMC,091011.000,A,3535.7459,N,11141.6683,E,0.00,218.76,310522,,,A*75
UTC_time:2022-05-31 09:10:11
BJ_time:2022-05-31 17:10:11
{'纬度': [35.595765, 'N'], '经度': [111.69447166666667, 'E']}
b'$GNRMC,091012.000,A,3535.7459,N,11141.6683,E,0.00,218.76,310522,,,A*76
UTC_time:2022-05-31 09:10:12
BJ_time:2022-05-31 17:10:12
{'纬度': [35.595765, 'N'], '经度': [111.69447166666667, 'E']}
b'$GNRMC,091013.000,A,3535.7459,N,11141.6683,E,0.00,218.76,310522,,,A*77
UTC_time:2022-05-31 09:10:13
BJ_time:2022-05-31 17:10:13
{'纬度': [35.595765, 'N'], '经度': [111.69447166666667, 'E']}
b'$GNRMC,091014.000,A,3535.7459,N,11141.6683,E,0.00,218.76,310522,,,A*70
UTC_time:2022-05-31 09:10:14
BJ_time:2022-05-31 17:10:14
{'纬度': [35.595765, 'N'], '经度': [111.69447166666667, 'E']}
b'$GNRMC,091015.000,A,3535.7459,N,11141.6683,E,0.00,218.76,310522,,,A*71
UTC_time:2022-05-31 09:10:15
BJ_time:2022-05-31 17:10:15
{'纬度': [35.595765, 'N'], '经度': [111.69447166666667, 'E']}
b'$GNRMC,091016.000,A,3535.7459,N,11141.6683,E,0.00,218.76,310522,,,A*72
UTC_time:2022-05-31 09:10:16
BJ_time:2022-05-31 17:10:16
{'纬度': [35.595765, 'N'], '经度': [111.69447166666667, 'E']}
b'$GNRMC,091017.000,A,3535.7459,N,11141.6683,E,0.00,218.76,310522,,,A*73
UTC_time:2022-05-31 09:10:17
BJ_time:2022-05-31 17:10:17
{'纬度': [35.595765, 'N'], '经度': [111.69447166666667, 'E']}
b'$GNRMC,091018.000,A,3535.7459,N,11141.6683,E,0.00,218.76,310522,,,A*7C
UTC_time:2022-05-31 09:10:18
BJ_time:2022-05-31 17:10:18
{'纬度': [35.595765, 'N'], '经度': [111.69447166666667, 'E']}
b'$GNRMC,091019.000,A,3535.7459,N,11141.6683,E,0.00,218.76,310522,,,A*7D
UTC_time:2022-05-31 09:10:19
BJ_time:2022-05-31 17:10:19
{'纬度': [35.595765, 'N'], '经度': [111.69447166666667, 'E']}
b'$GNRMC,091020.000,A,3535.7459,N,11141.6683,E,0.00,218.76,310522,,,A*77
UTC_time:2022-05-31 09:10:20
BJ_time:2022-05-31 17:10:20
{'纬度': [35.595765, 'N'], '经度': [111.69447166666667, 'E']}
b'$GNRMC,101152.000,A,3535.7452,N,11141.6691,E,0.00,149.19,310522,,,A*7D
UTC_time:2022-05-31 10:11:52
BJ_time:2022-05-31 18:11:52
{'纬度': [35.595753333333334, 'N'], '经度': [111.694485, 'E']}
b'$GNRMC,101153.000,A,3535.7452,N,11141.6691,E,0.00,149.19,310522,,,A*7C
UTC_time:2022-05-31 10:11:53
BJ_time:2022-05-31 18:11:53
{'纬度': [35.595753333333334, 'N'], '经度': [111.694485, 'E']}
b'$GNRMC,101154.000,A,3535.7452,N,11141.6691,E,0.00,149.19,310522,,,A*7B
UTC_time:2022-05-31 10:11:54
BJ_time:2022-05-31 18:11:54
{'纬度': [35.595753333333334, 'N'], '经度': [111.694485, 'E']}
b'$GNRMC,101155.000,A,3535.7452,N,11141.6691,E,0.00,149.19,310522,,,A*7A
UTC_time:2022-05-31 10:11:55
BJ_time:2022-05-31 18:11:55
{'纬度': [35.595753333333334, 'N'], '经度': [111.694485, 'E']}
b'$GNRMC,101156.000,A,3535.7452,N,11141.6691,E,0.00,149.19,310522,,,A*79
UTC_time:2022-05-31 10:11:56
BJ_time:2022-05-31 18:11:56
{'纬度': [35.595753333333334, 'N'], '经度': [111.694485, 'E']}
b'$GNRMC,101157.000,A,3535.7452,N,11141.6691,E,0.00,149.19,310522,,,A*78
UTC_time:2022-05-31 10:11:57
BJ_time:2022-05-31 18:11:57
{'纬度': [35.595753333333334, 'N'], '经度': [111.694485, 'E']}
b'$GNRMC,144214.000,A,3535.7356,N,11141.6781,E,0.00,332.11,310522,,,A*78
UTC_time:2022-05-31 14:42:14
BJ_time:2022-05-31 22:42:14
{'纬度': [35.59559333333333, 'N'], '经度': [111.694635, 'E']}
b'$GNRMC,144215.000,A,3535.7356,N,11141.6781,E,0.00,332.11,310522,,,A*79
UTC_time:2022-05-31 14:42:15
BJ_time:2022-05-31 22:42:15
{'纬度': [35.59559333333333, 'N'], '经度': [111.694635, 'E']}
b'$GNRMC,144216.000,A,3535.7356,N,11141.6781,E,0.00,332.11,310522,,,A*7A
UTC_time:2022-05-31 14:42:16
BJ_time:2022-05-31 22:42:16
{'纬度': [35.59559333333333, 'N'], '经度': [111.694635, 'E']}
